,City,Lat,Lng,Max Temp,Humidity,Cloudiness,Wind Speed,Country,Date
0,Thompson,55.7435,-97.8558,-19.08,95,61,6.98,CA,1647000747
1,Killarney,52.05,-9.5167,51.19,77,100,10.22,IE,1647000747
2,Ilulissat,69.2167,-51.1,3.22,51,75,2.3,GL,1647000747
3,Tuktoyaktuk,69.4541,-133.0374,-15.95,99,100,8.52,CA,1647000747
4,Narsaq,60.9167,-46.05,5.22,71,62,2.19,GL,1647000748
5,Aklavik,68.2191,-135.0107,-29.99,99,90,3.85,CA,1647000748
6,Qasigiannguit,68.8193,-51.1922,3.45,97,99,4.54,GL,1647000748
7,Songjianghe,42.1859,127.479,24.71,76,0,3.13,CN,1647000748
8,Kapaa,22.0752,-159.319,73.72,83,100,10.36,US,1647000484
9,Half Moon Bay,37.4636,-122.4286,54.01,55,0,4.61,US,1647000749
10,Cherskiy,68.75,161.3,-5.3,82,90,2.98,RU,1647000749
11,Tumaco,1.7986,-78.8156,74.28,92,15,3.09,CO,1647000749
12,Severo-Yeniseyskiy,60.3725,93.0408,-4.49,99,100,2.51,RU,1647000750
13,Ciudad Bolivar,8.1222,-63.5497,77.43,77,99,9.91,VE,1647000750
14,Karpogory,64.0019,44.4451,26.67,95,100,8.19,RU,1647000750
15,Chowchilla,37.123,-120.2602,42.51,51,0,5.75,US,1647000751
16,Laas,46.6166,10.7002,44.37,78,84,5.66,IT,1647000751
17,Tasiilaq,65.6145,-37.6368,28.56,77,100,4.81,GL,1647000751
18,Şebinkarahisar,40.2883,38.4236,24.76,63,100,11.36,TR,1647000751
19,Baruun-Urt,46.6806,113.2792,35.64,44,100,6.76,MN,1647000752
20,Butaritari,3.0707,172.7902,80.71,80,99,14.67,KI,1647000752
21,Acajutla,13.5928,-89.8275,76.28,80,11,6.87,SV,1647000752
22,Linjiang,41.8069,126.9078,31.39,69,0,1.25,CN,1647000752
23,Nazas,25.2333,-104.1333,48.99,30,87,5.28,MX,1647000753
24,Bonthe,7.5264,-12.505,87.01,58,12,9.4,SL,1647000753
25,São Filipe,14.8961,-24.4956,74.23,61,2,10.67,CV,1647000753
26,Turukhansk,65.8167,87.9833,-7.53,98,100,1.05,RU,1647000753
27,Olafsvik,64.8945,-23.7142,41.92,81,80,33.69,IS,1647000753
28,Dikson,73.5069,80.5464,-7.13,91,100,23.42,RU,1647000754
29,Cayenne,4.9333,-52.3333,83.08,57,75,5.75,GF,1647000754
30,Saskylakh,71.9167,114.0833,-20.43,99,100,4.14,RU,1647000754
31,Lagoa,39.05,-27.9833,59.09,81,100,31.05,PT,1647000755
32,Kavaratti,10.5669,72.642,83.62,70,0,6.49,IN,1647000755
33,Jinji,23.2281,110.8261,74.88,60,33,2.64,CN,1647000755
34,Yankton,42.8711,-97.3973,12.45,73,0,13.8,US,1647000756
35,Lyudinovo,53.8664,34.4478,27.95,65,66,5.23,RU,1647000756
36,Nouadhibou,20.931,-17.0347,70.29,49,0,8.79,MR,1647000756
37,Ribeira Grande,38.5167,-28.7,61.2,72,75,24.16,PT,1647000757
38,Sur,22.5667,59.5289,86.05,39,5,3.96,OM,1647000757
39,La Baule-Escoublac,47.2922,-2.364,55.71,82,75,21.85,FR,1647000757
40,Chokurdakh,70.6333,147.9167,-9.45,99,100,3.91,RU,1647000757
41,Andreapol',56.6513,32.2664,30.94,63,53,9.17,RU,1647000757
42,Longyearbyen,78.2186,15.6401,13.84,67,0,14.97,SJ,1647000758
43,Simao,22.7886,100.9748,69.98,32,23,2.51,CN,1647000758
44,Polyarny,69.1989,33.4478,35.51,85,94,19.71,RU,1647000758
45,Arlit,18.7369,7.3853,91.2,10,3,6.62,NE,1647000759
46,Bathsheba,13.2167,-59.5167,79.41,69,20,21.85,BB,1647000759
47,Kurumkan,54.3,110.3,7.9,88,100,4.52,RU,1647000759
48,Buckeye,33.3703,-112.5838,54.19,28,5,13.42,US,1647000760
49,Shubarkuduk,49.1447,56.4872,22.93,88,99,16.2,KZ,1647000760
50,Qaanaaq,77.484,-69.3632,-9.0,72,25,6.46,GL,1647000760
51,Sagamu,6.8432,3.6478,98.85,38,81,7.34,NG,1647000760
52,The Pas,53.8251,-101.2541,-19.07,96,49,9.08,CA,1647000761
53,Barrow,71.2906,-156.7887,-7.58,77,0,5.75,US,1647000761
54,Mogocha,53.7333,119.7667,8.47,95,96,2.21,RU,1647000761
55,Bandiagara,14.3501,-3.6104,98.55,6,37,10.51,ML,1647000761
56,Klaksvík,62.2266,-6.589,49.12,92,26,28.99,FO,1647000762
57,Nanortalik,60.1432,-45.2371,10.74,73,26,16.8,GL,1647000762
58,Siilinjärvi,63.0833,27.6667,37.42,70,0,6.91,FI,1647000762
59,Vila Franca do Campo,37.7167,-25.4333,63.19,67,100,13.53,PT,1647000762
60,Yellowknife,62.456,-114.3525,-17.45,76,75,4.61,CA,1647000763
61,Sitka,57.0531,-135.33,40.89,81,100,9.22,US,1647000763
62,Airai,-8.9266,125.4092,63.45,95,99,2.55,TL,1647000763
63,Iqaluit,63.7506,-68.5145,-28.41,92,78,6.13,CA,1647000763
64,Pangnirtung,66.1451,-65.7125,-15.99,99,100,2.33,CA,1647000764
65,Roald,62.5833,6.1333,56.32,32,0,9.22,NO,1647000764
66,Manaure,11.7751,-72.4445,78.24,79,43,8.66,CO,1647000765
67,Atuona,-9.8,-139.0333,78.49,78,93,16.49,PF,1647000765
68,San Marcos,33.1434,-117.1661,54.43,80,0,6.91,US,1647000765
69,Loreto,22.2667,-101.9667,45.63,43,5,8.81,MX,1647000765
70,Saint Paul Harbor,57.79,-152.4072,38.71,87,100,8.05,US,1647000766
71,Tiksi,71.6872,128.8694,-7.02,99,100,5.97,RU,1647000766
72,Batagay-Alyta,67.8006,130.4114,-0.9,97,100,2.19,RU,1647000766
73,Forsytheganj,52.6333,29.7333,30.15,43,83,10.71,BY,1647000766
74,Liubar,49.9204,27.7592,30.02,44,1,18.16,UA,1647000767
75,Ucluelet,48.9329,-125.5528,39.09,89,100,8.99,CA,1647000767
76,Impfondo,1.6381,18.0667,72.46,94,100,6.44,CG,1647000767
77,Jumla,29.2747,82.1838,46.4,82,88,2.33,NP,1647000767
78,Superior,46.7208,-92.1041,8.69,63,0,23.02,US,1647000767
79,Ajdabiya,30.7554,20.2263,59.41,43,98,12.48,LY,1647000768
80,Beringovskiy,63.05,179.3167,3.29,88,56,11.95,RU,1647000768
81,Cabo San Lucas,22.8909,-109.9124,63.52,62,4,12.68,MX,1647000768
82,Hilo,19.7297,-155.09,70.61,88,0,6.91,US,1647000769
83,Khlung,12.4547,102.2214,86.11,80,35,4.56,TH,1647000769
84,Lorengau,-2.0226,147.2712,81.57,77,100,5.55,PG,1647000770
85,Abu Samrah,35.3029,37.1841,46.63,53,67,35.79,SY,1647000771
86,Nikolskoye,59.7035,30.7861,33.71,92,100,9.73,RU,1647000771
87,Tvrdošín,49.337,19.556,37.2,51,0,13.0,SK,1647000771
88,Ulaangom,49.9811,92.0667,14.29,94,72,2.71,MN,1647000772
89,Żurrieq,35.8311,14.4742,58.51,58,20,10.36,MT,1647000772
90,Torbay,47.6666,-52.7314,34.57,85,59,10.0,CA,1647000772
91,Suntar,62.1444,117.6319,-10.98,99,90,0.85,RU,1647000772
92,Celestún,20.8667,-90.4,73.74,83,4,11.79,MX,1647000773
93,Bettiah,26.8,84.5,82.99,20,0,7.34,IN,1647000575
94,Matane,48.8286,-67.522,7.29,90,77,1.97,CA,1647000774
95,Brownwood,31.7093,-98.9912,32.0,66,100,13.8,US,1647000774
96,Gombe,10.2897,11.1673,95.27,13,94,8.72,NG,1647000603
97,Kenai,60.5544,-151.2583,34.03,97,100,10.36,US,1647000775
98,Upernavik,72.7868,-56.1549,-9.8,87,100,5.57,GL,1647000775
99,Tayoltita,24.0833,-105.9333,47.7,51,24,4.23,MX,1647000775
100,Constitución,-35.3333,-72.4167,58.35,65,1,3.98,CL,1647000776
101,Juba,4.8517,31.5825,103.78,17,100,7.23,SS,1647000776
102,Paamiut,61.994,-49.6678,-1.21,93,65,14.23,GL,1647000776
103,Zhangye,38.9342,100.4517,49.48,32,47,4.47,CN,1647000776
104,Bubaque,11.2833,-15.8333,77.52,52,82,3.02,GW,1647000777
105,Dunmore East,52.1514,-6.9861,51.24,76,40,10.36,IE,1647000777
106,Hasaki,35.7333,140.8333,52.2,68,57,18.52,JP,1647000777
107,Saint-Pierre,-21.3393,55.4781,85.68,73,4,21.85,RE,1647000778
108,Porlamar,10.958,-63.8491,77.7,83,99,17.81,VE,1647000778
109,Toba,34.4833,136.85,52.09,85,94,7.34,JP,1647000670
110,Thinadhoo,0.5333,72.9333,83.41,65,1,5.23,MV,1647000778
111,Alexandria,31.2156,29.9553,56.37,47,85,21.45,EG,1647000778
112,Pell City,33.5862,-86.2861,53.56,98,100,3.44,US,1647000779
113,Tongliao,43.6125,122.2653,35.96,32,5,2.62,CN,1647000779
114,Concepción del Oro,24.6333,-101.4167,43.86,20,31,4.29,MX,1647000779
115,Abu Kamal,34.4506,40.9171,60.21,32,48,32.32,SY,1647000779
116,Ankang,32.68,109.0172,73.09,49,1,6.85,CN,1647000780
117,Port Hardy,50.6996,-127.4199,39.27,96,100,20.6,CA,1647000780
118,Bandarbeyla,9.4942,50.8122,80.53,63,45,13.58,SO,1647000780
119,North Bend,43.4065,-124.2243,38.86,99,0,6.91,US,1647000780
120,Sisimiut,66.9395,-53.6735,-8.14,89,27,4.5,GL,1647000781
121,Green River,41.5286,-109.4662,5.99,65,4,3.0,US,1647000574
122,Seoul,37.5683,126.9778,51.19,45,41,2.01,KR,1647000571
123,Marzuq,14.4,46.4667,87.48,11,53,14.38,YE,1647000781
124,Tallahassee,30.4383,-84.2807,64.6,97,100,5.75,US,1647000489
125,Mehamn,71.0357,27.8492,37.35,60,40,19.57,NO,1647000782
126,Makakilo City,21.3469,-158.0858,74.28,74,0,9.22,US,1647000782
127,Zyryanka,65.75,150.85,1.58,96,100,9.35,RU,1647000783
128,Santa Marta,11.2408,-74.199,80.89,69,11,7.76,CO,1647000783
129,Codrington,-38.2667,141.9667,55.78,71,68,6.33,AU,1647000783
130,Nemuro,43.3236,145.575,34.07,88,100,13.98,JP,1647000783
131,Sompeta,18.9333,84.6,83.79,49,2,4.97,IN,1647000784
132,Tottori-shi,35.5,134.2333,49.98,69,19,7.27,JP,1647000544
133,Bilma,18.6853,12.9164,84.04,16,38,4.36,NE,1647000784
134,Khatanga,71.9667,102.5,-17.9,97,100,4.61,RU,1647000784
135,Takoradze,4.8845,-1.7554,87.26,67,100,11.43,GH,1647000785
136,Hue,16.4667,107.6,75.31,83,75,6.91,VN,1647000726
137,Kutum,14.2,24.6667,84.0,13,54,16.58,SD,1647000785
138,Ostrovnoy,68.0531,39.5131,34.9,85,85,22.66,RU,1647000786
139,Koshurnikovo,54.1667,93.3,8.73,97,100,2.37,RU,1647000786
140,Leningradskiy,69.3833,178.4167,1.89,78,2,2.71,RU,1647000787
141,Fort Nelson,58.8053,-122.7002,8.89,97,100,1.19,CA,1647000787
142,Vostok,46.4856,135.8833,22.82,96,100,5.26,RU,1647000787
143,Dingle,10.9995,122.6711,78.21,88,85,5.93,PH,1647000787
144,Shitanjing,39.2342,106.3439,55.06,26,85,19.24,CN,1647000788
145,Águilas,37.4063,-1.5829,59.63,68,100,7.56,ES,1647000788
146,Gambēla,8.25,34.5833,102.51,21,92,10.13,ET,1647000788
147,Carutapera,-1.195,-46.02,75.97,93,100,3.67,BR,1647000788
148,Pingdingshan,33.7385,113.3012,71.83,52,50,10.45,CN,1647000789
149,Kurchum,48.5722,83.6542,18.25,93,100,1.63,KZ,1647000789
150,Praia da Vitória,38.7333,-27.0667,59.68,79,100,24.2,PT,1647000789
151,Camacha,33.0833,-16.3333,62.02,72,20,8.05,PT,1647000789
152,São Gabriel da Cachoeira,-0.1303,-67.0892,73.89,97,96,1.41,BR,1647000790
153,Kieta,-6.2167,155.6333,79.43,76,47,2.17,PG,1647000790
154,Tongchuanshi,35.0806,109.0897,64.99,55,52,8.52,CN,1647000790
155,Bilibino,68.0546,166.4372,-5.82,74,4,4.68,RU,1647000790
156,Slonim,53.0867,25.3219,34.59,34,11,5.53,BY,1647000790
157,Freeport,40.6576,-73.5832,42.96,71,0,0.0,US,1647000791
158,Adrar,20.5022,-10.0711,82.08,7,0,20.6,MR,1647000791
159,Bethel,41.3712,-73.414,33.91,87,0,0.0,US,1647000791
160,Balaipungut,1.05,101.2833,76.21,94,88,2.3,ID,1647000792
161,Fortuna,40.5982,-124.1573,38.32,100,0,8.05,US,1647000792
162,Enshi,30.3,109.4833,68.9,71,13,4.12,CN,1647000792
163,Burē,10.7,37.0667,87.46,15,91,3.27,ET,1647000792
164,College,64.8569,-147.8028,10.72,68,40,4.61,US,1647000793
165,Visby,57.6409,18.296,42.06,52,0,14.97,SE,1647000793
166,Ponta do Sol,32.6667,-17.1,69.01,67,97,8.95,PT,1647000793
167,Palimbang,6.2106,124.1894,80.44,87,65,7.0,PH,1647000793
168,Hong Kong,22.2855,114.1577,73.38,77,18,5.99,HK,1647000520
169,Norman Wells,65.282,-126.8329,-14.37,98,100,5.17,CA,1647000794
170,Yilan,24.757,121.753,71.37,99,5,1.7,TW,1647000681
171,Marsala,37.7966,12.4352,59.94,60,94,13.13,IT,1647000795
172,Goderich,43.7501,-81.7165,26.91,94,100,8.25,CA,1647000574
173,Inta,66.0317,60.1659,16.07,67,88,23.2,RU,1647000795
174,Trezzano sul Naviglio,45.4231,9.0664,52.05,53,75,10.36,IT,1647000795
175,Zykovo,55.9519,93.1461,11.14,97,100,2.51,RU,1647000795
176,Acaraú,-2.8856,-40.12,79.54,80,93,4.7,BR,1647000796
177,Moose Factory,51.2585,-80.6094,-11.22,77,20,4.61,CA,1647000796
178,Jiangyou,31.7667,104.7167,72.77,52,96,4.9,CN,1647000797
179,Trabzon Province,40.9167,39.8333,32.09,93,75,20.71,TR,1647000797
180,Provincia di Verona,45.4167,11.0333,56.03,50,20,8.05,IT,1647000798
181,Shingū,33.7333,135.9833,52.05,85,100,6.29,JP,1647000615
182,Arrondissement du Havre,49.5833,0.3333,54.0,66,100,16.11,FR,1647000798
183,Lashio,22.9333,97.75,81.43,26,39,2.82,MM,1647000798
184,Talaya,61.3833,152.75,-4.83,100,95,2.08,RU,1647000799
185,Vestmannaeyjar,63.4427,-20.2734,45.59,76,40,27.63,IS,1647000799
186,Pevek,69.7008,170.3133,-3.71,82,8,4.45,RU,1647000799
187,Matale,7.4721,80.6234,78.48,76,50,1.43,LK,1647000799
188,Xiongzhou,25.1167,114.3,75.11,60,72,1.54,CN,1647000800
189,Provideniya,64.3833,-173.3,14.97,56,0,14.72,RU,1647000800
190,Lavrentiya,65.5833,-171.0,9.63,70,0,12.48,RU,1647000800
191,Newport,51.5877,-2.9984,51.26,88,100,4.0,GB,1647000800
192,Weyburn,49.6668,-103.8511,-17.36,99,88,8.32,CA,1647000800
193,Mīnāb,27.1467,57.0801,85.55,37,99,11.39,IR,1647000801
194,Tura,25.5198,90.2201,75.31,26,26,2.53,IN,1647000801
195,Yangi Marg`ilon,40.4272,71.7189,54.32,76,75,9.22,UZ,1647000801
196,Tiznit Province,29.5833,-9.5,66.92,30,0,9.33,MA,1647000801
197,Nivala,63.9167,24.9667,40.68,91,100,5.73,FI,1647000802
198,Kisi,9.0833,3.85,102.88,24,50,0.87,NG,1647000802
199,Kānkon,15.0167,74.0167,85.5,65,10,9.82,IN,1647000802
200,Belturbet,54.1,-7.45,45.46,96,100,11.12,IE,1647000803
201,Brainerd,46.358,-94.2008,1.69,66,0,11.5,US,1647000803
202,Saltpond,5.2091,-1.0606,86.86,67,81,12.3,GH,1647000570
203,Lompoc,34.6391,-120.4579,55.13,79,0,8.99,US,1647000804
204,Tabou,4.423,-7.3528,84.83,73,100,7.43,CI,1647000804
205,Severo-Kuril'sk,50.6789,156.125,30.31,92,100,8.28,RU,1647000804
206,Anadyr,64.75,177.4833,0.07,74,0,4.03,RU,1647000805
207,Havøysund,70.9963,24.6622,37.63,78,100,22.55,NO,1647000805
208,Fairbanks,64.8378,-147.7164,10.74,68,40,4.61,US,1647000806
209,Paka,4.6374,103.4368,77.81,78,59,9.19,MY,1647000806
210,Dixon,38.4455,-121.8233,50.0,24,0,9.22,US,1647000806
211,Storforshei,66.4043,14.5233,40.78,80,40,6.91,NO,1647000806
212,Saint George,37.1041,-113.5841,30.25,43,0,8.05,US,1647000807
213,Los Llanos de Aridane,28.6585,-17.9182,65.95,75,20,6.91,ES,1647000807
214,Khani,41.9563,42.9566,31.57,99,100,5.82,GE,1647000807
215,Kalāleh,37.3807,55.4916,58.6,77,75,9.22,IR,1647000807
216,Rørvik,64.8621,11.2373,50.11,53,0,6.91,NO,1647000807
217,Zaragoza,41.6561,-0.8773,53.02,86,100,8.05,ES,1647000808
218,Falkenstein,50.4779,12.3713,46.09,30,8,32.01,DE,1647000808
219,Dérac,19.65,-71.8167,73.38,84,3,7.02,HT,1647000809
220,Alugan,12.2188,125.4808,78.91,87,99,8.59,PH,1647000809
221,Rāwah,34.4816,41.9093,60.93,38,50,29.12,IQ,1647000809
222,San Patricio,28.017,-97.5169,64.35,95,100,8.05,US,1647000809
223,Palmer,42.1584,-72.3287,33.51,85,20,0.0,US,1647000810
224,Huéscar,37.811,-2.5412,57.25,49,100,9.93,ES,1647000810
225,Businga,3.3333,20.8833,86.79,53,100,6.35,CD,1647000810
226,Martinsville,36.6915,-79.8725,38.17,97,0,0.0,US,1647000810
227,Port Hawkesbury,45.6169,-61.3485,33.73,92,97,1.99,CA,1647000811
228,Cap Estate,14.0833,-60.95,78.42,74,22,21.18,LC,1647000811
229,Atbasar,51.8,68.3333,12.02,86,100,19.17,KZ,1647000811
230,Sibolga,1.7427,98.7792,79.9,81,64,1.92,ID,1647000811
231,Mayo,38.8876,-76.5119,40.5,97,0,3.44,US,1647000812
232,Yatou,37.15,122.3833,43.68,81,59,6.35,CN,1647000812
233,Fairmont,39.4851,-80.1426,38.93,93,36,2.82,US,1647000812
234,Mrakovo,52.7161,56.6244,17.58,83,100,12.15,RU,1647000812
235,Coos Bay,43.3665,-124.2179,38.93,99,0,6.91,US,1647000812
236,Abu Dhabi,24.4667,54.3667,102.31,11,0,5.75,AE,1647000578
237,Wagar,16.1525,36.2032,96.6,26,88,20.6,SD,1647000813
238,Lovington,32.944,-103.3485,19.33,63,74,16.58,US,1647000813
239,West Wendover,40.7391,-114.0733,25.56,48,15,4.41,US,1647000813
240,Puerto Escondido,15.85,-97.0667,72.43,68,0,0.0,MX,1647000814
241,Katsuura,35.1333,140.3,58.33,69,90,21.99,JP,1647000814
242,Acapulco de Juárez,16.8634,-99.8901,66.02,88,0,3.44,MX,1647000814
243,Aldan,58.6031,125.3894,-4.18,100,100,2.93,RU,1647000815
244,Omsukchan,62.5333,155.8,-2.07,99,24,3.4,RU,1647000815
245,Abilene,32.4487,-99.7331,29.08,63,100,18.41,US,1647000815
246,Valley City,46.9233,-98.0032,-5.28,71,100,27.63,US,1647000815
247,Shymkent,42.3,69.6,59.59,72,75,6.71,KZ,1647000816
248,Buchanan,5.8808,-10.0467,85.66,68,82,6.73,LR,1647000816
249,San Quintín,30.4833,-115.95,53.85,71,13,0.92,MX,1647000816
250,Grindavik,63.8424,-22.4338,45.07,81,75,29.93,IS,1647000816
251,Lučani,43.8608,20.1381,36.05,50,77,7.78,RS,1647000817
252,Kuching,1.55,110.3333,82.62,78,20,8.05,MY,1647000708
253,Trairi,-3.2778,-39.2689,75.4,96,100,6.8,BR,1647000817
254,Mezen',65.8522,44.24,32.32,92,100,9.04,RU,1647000818
255,Monroe,43.1501,-77.6831,31.96,91,100,0.0,US,1647000585
256,San Mateo del Mar,16.2,-95.0,79.0,76,1,11.07,MX,1647000818
257,Preobrazheniye,42.9019,133.9064,35.49,57,0,10.25,RU,1647000818
258,Mandalgovi,45.7625,106.2708,36.32,44,99,11.03,MN,1647000819
259,Trincomalee,8.5711,81.2335,81.41,74,82,12.08,LK,1647000556
260,Karakol,42.4907,78.3936,39.87,73,71,4.21,KG,1647000819
261,Ithaca,42.4406,-76.4966,32.34,91,20,3.44,US,1647000819
262,San Andrés,12.5847,-81.7006,78.82,78,20,6.91,CO,1647000631
263,Puerto Ayora,-0.7393,-90.3518,73.54,96,81,0.96,EC,1647000820
264,Morón,-34.6534,-58.6198,65.95,79,3,7.92,AR,1647000821
265,Pavlovsk,50.4578,40.1081,21.09,84,100,15.17,RU,1647000821
266,High Rock,26.6208,-78.2833,75.22,83,2,16.28,BS,1647000821
267,Stann Creek Town,16.9692,-88.2321,79.9,75,59,11.59,BZ,1647000821
268,Baiyin,36.5583,104.2081,53.74,24,100,20.13,CN,1647000652
269,Santa Cruz de la Sierra,-17.8,-63.1667,69.85,100,100,16.11,BO,1647000822
270,Jamestown,42.097,-79.2353,28.04,60,75,3.44,US,1647000822
271,Hermanus,-34.4187,19.2345,78.31,64,94,9.06,ZA,1647000823
272,Albany,42.6001,-73.9662,27.23,92,38,2.13,US,1647000823
273,Punta Arenas,-53.15,-70.9167,50.11,93,75,10.36,CL,1647000823
274,Mataura,-46.1927,168.8643,63.48,56,44,12.66,NZ,1647000823
275,Avarua,-21.2078,-159.775,75.25,94,97,3.44,CK,1647000824
276,Mar del Plata,-38.0023,-57.5575,62.62,87,40,10.0,AR,1647000824
277,Sechura,-5.5569,-80.8222,72.7,77,98,4.59,PE,1647000824
278,Hobart,-42.8794,147.3294,58.86,78,75,2.3,AU,1647000600
279,Puerto Ayora,-0.7393,-90.3518,73.54,96,81,0.96,EC,1647000820
280,Pandamatenga,-18.5278,25.627,82.35,47,49,6.98,BW,1647000825
281,Itacarambi,-15.1022,-44.0919,79.47,66,74,4.09,BR,1647000825
282,Cap Malheureux,-19.9842,57.6142,86.47,73,12,8.99,MU,1647000825
283,Rikitea,-23.1203,-134.9692,77.47,73,8,5.44,PF,1647000825
284,Busselton,-33.65,115.3333,73.02,54,38,0.6,AU,1647000826
285,New Norfolk,-42.7826,147.0587,58.5,63,72,1.88,AU,1647000739
286,Ushuaia,-54.8,-68.3,47.82,87,75,14.97,AR,1647000826
287,East London,-33.0153,27.9116,82.54,63,0,17.56,ZA,1647000827
288,Chui,-33.6971,-53.4616,66.31,50,20,11.21,UY,1647000827
289,Vaini,-21.2,-175.2,80.58,78,99,7.67,TO,1647000827
290,Atuona,-9.8,-139.0333,78.49,78,93,16.49,PF,1647000765
291,Lebu,-37.6167,-73.65,56.44,80,3,14.47,CL,1647000828
292,Luwuk,-0.9516,122.7875,80.38,87,82,1.77,ID,1647000828
293,Saint-Philippe,-21.3585,55.7679,85.59,82,36,12.12,RE,1647000828
294,Comodoro Rivadavia,-45.8667,-67.5,62.46,51,0,9.22,AR,1647000829
295,Río Gallegos,-51.6226,-69.2181,53.62,79,81,7.29,AR,1647000829
296,Bengkulu,-3.8004,102.2655,77.79,88,97,9.01,ID,1647000829
297,Saint-Joseph,-21.3667,55.6167,84.58,79,19,13.71,RE,1647000829
298,Alice Springs,-23.7,133.8833,71.15,30,0,6.91,AU,1647000575
299,Cape Town,-33.9258,18.4232,83.12,25,75,13.8,ZA,1647000830
300,Bluff,-46.6,168.3333,63.81,66,38,21.09,NZ,1647000830
301,Conde,-7.2597,-34.9075,83.66,70,75,12.66,BR,1647000830
302,Viedma,-40.8135,-62.9967,61.2,59,1,10.6,AR,1647000831
303,Tucuruí,-3.7661,-49.6725,76.19,89,99,2.86,BR,1647000831
304,Necochea,-38.5473,-58.7368,61.74,65,83,16.91,AR,1647000832
305,Castro,-24.7911,-50.0119,67.42,91,100,4.45,BR,1647000832
306,Katima Mulilo,-17.5,24.2667,85.37,44,38,6.78,NA,1647000608
307,Port Elizabeth,-33.918,25.5701,81.86,62,1,15.3,ZA,1647000833
308,Pemba,-12.974,40.5178,80.55,81,100,12.64,MZ,1647000833
309,Faanui,-16.4833,-151.75,81.32,71,27,12.46,PF,1647000833
310,Bredasdorp,-34.5322,20.0403,92.48,34,54,9.08,ZA,1647000833
311,Soe,-9.8607,124.284,67.91,94,97,3.38,ID,1647000833
312,Chapada dos Guimarães,-15.4606,-55.7497,73.06,86,62,2.84,BR,1647000834
313,Coquimbo,-29.9533,-71.3436,62.92,82,1,3.85,CL,1647000834
314,Lodja,-3.4833,23.4333,96.55,37,100,1.9,CD,1647000834
315,Cairns,-16.9167,145.7667,82.35,87,40,3.44,AU,1647000610
316,Kamina,-8.7386,24.9906,83.95,55,62,3.51,CD,1647000836
317,Imbituba,-28.24,-48.6703,80.82,88,94,2.95,BR,1647000837
318,Arraial do Cabo,-22.9661,-42.0278,84.06,61,0,20.71,BR,1647000837
319,Coyhaique,-45.5752,-72.0662,46.35,100,20,0.0,CL,1647000837
320,Sokoni,-6.4333,39.55,83.86,67,72,12.39,TZ,1647000837
321,Kununurra,-15.7667,128.7333,87.78,70,78,13.8,AU,1647000838
322,Carnarvon,-24.8667,113.6333,78.87,83,0,10.36,AU,1647000838
323,Esperance,-33.8667,121.9,70.57,62,57,18.79,AU,1647000838
324,Santiago,-33.4569,-70.6483,73.29,42,0,3.44,CL,1647000838
325,Saldanha,-33.0117,17.9442,79.52,52,100,0.69,ZA,1647000838
326,Vilhena,-12.7406,-60.1458,71.58,91,100,2.77,BR,1647000839
327,Inhambane,-23.865,35.3833,84.36,64,30,15.84,MZ,1647000839
328,Havelock,34.8791,-76.9013,48.18,95,67,1.01,US,1647000839
329,Mossamedes,-15.1961,12.1522,78.66,69,78,9.15,AO,1647000839
330,Pisco,-13.7,-76.2167,68.05,83,99,4.61,PE,1647000840
331,Mazabuka,-15.856,27.748,83.61,44,45,7.36,ZM,1647000840
332,George Town,5.4112,100.3354,85.95,79,20,2.3,MY,1647000840
333,Ahipara,-35.1667,173.1667,62.37,86,60,6.46,NZ,1647000841
334,Vao,-22.6667,167.4833,79.61,75,9,12.75,NC,1647000841
335,Menongue,-14.6585,17.691,77.99,66,44,4.14,AO,1647000841
336,Hualmay,-11.0964,-77.6139,70.97,85,89,5.82,PE,1647000841
337,Tuatapere,-46.1333,167.6833,59.72,73,81,9.95,NZ,1647000841
338,Acarí,-15.4311,-74.6158,73.99,78,70,1.54,PE,1647000842
339,Esim,4.8699,-2.2405,86.85,66,98,8.81,GH,1647000575
340,Chiredzi,-21.05,31.6667,91.22,28,51,10.07,ZW,1647000842
341,Port Alfred,-33.5906,26.891,83.08,63,2,18.37,ZA,1647000843
342,Wewak,-3.5534,143.6268,80.04,83,57,5.66,PG,1647000843
343,Plettenberg Bay,-34.0527,23.3716,83.14,58,32,8.77,ZA,1647000843
344,Burnie,-41.0667,145.9167,58.91,79,79,6.91,AU,1647000843
345,Cidreira,-30.1811,-50.2056,71.92,93,100,11.16,BR,1647000844
346,Coruripe,-10.1256,-36.1756,83.07,66,70,9.53,BR,1647000844
347,Bambous Virieux,-20.3428,57.7575,86.22,77,29,12.44,MU,1647000844
348,Portland,45.5234,-122.6762,38.95,83,75,1.99,US,1647000844
349,Likasi,-10.9814,26.7333,79.79,61,92,2.86,CD,1647000845
350,Tiarei,-17.5333,-149.3333,75.22,72,25,11.23,PF,1647000845
351,Ancud,-41.8697,-73.8203,56.23,89,5,4.83,CL,1647000845
352,Port Macquarie,-31.4333,152.9167,65.89,72,99,3.85,AU,1647000845
353,Ipixuna,-1.7625,-48.8043,75.85,91,100,2.57,BR,1647000846
354,Koster,-25.863,26.8976,79.88,37,25,6.2,ZA,1647000846
355,Nhulunbuy,-12.2333,136.7667,84.81,79,60,3.44,AU,1647000846
356,Mahébourg,-20.4081,57.7,86.25,77,30,12.12,MU,1647000846
357,Kieta,-6.2167,155.6333,79.43,76,47,2.17,PG,1647000790
358,Mount Gambier,-37.8333,140.7667,54.82,77,89,6.11,AU,1647000847
359,Guarujá,-23.9931,-46.2564,84.88,26,100,1.01,BR,1647000847
360,San Antonio,29.4241,-98.4936,64.15,84,100,6.91,US,1647000847
361,Olinda,-8.0089,-34.8553,82.13,74,75,5.75,BR,1647000848
362,Kaitangata,-46.2817,169.8464,64.04,59,59,10.83,NZ,1647000848
363,Manggar,-2.8833,108.2667,81.1,78,64,9.13,ID,1647000848
364,Aripuanã,-9.1667,-60.6333,73.74,96,98,1.07,BR,1647000848
365,Carauari,-4.8828,-66.8958,75.04,91,94,2.71,BR,1647000849
366,Porto Velho,-8.7619,-63.9039,77.05,88,20,1.14,BR,1647000849
367,Iquique,-20.2208,-70.1431,70.45,82,36,2.33,CL,1647000849
368,Yulara,-25.2406,130.9889,82.24,17,0,6.91,AU,1647000849
369,Launceston,-41.45,147.1667,59.14,87,69,8.05,AU,1647000604
370,Hithadhoo,-0.6,73.0833,83.64,56,1,5.93,MV,1647000850
371,Tacuarembó,-31.7333,-55.9833,62.02,71,54,11.12,UY,1647000850
372,Bima,-8.4667,118.7167,78.22,90,79,2.55,ID,1647000850
373,Maumere,-8.6199,122.2111,82.0,79,69,1.23,ID,1647000851
374,Mildura,-34.2,142.15,66.07,39,100,4.61,AU,1647000745
375,Ilo,-17.6394,-71.3375,71.49,87,90,5.91,PE,1647000851
376,Takaka,-40.85,172.8,66.56,94,100,6.2,NZ,1647000640
377,Porto Belo,-27.1578,-48.5531,84.09,87,100,5.39,BR,1647000852
378,Auki,-8.7676,160.7034,77.94,87,100,4.36,SB,1647000852
379,Colquechaca,-18.6667,-66.0167,35.04,83,100,3.67,BO,1647000852
380,Walvis Bay,-22.9575,14.5053,67.08,63,26,17.13,NA,1647000852
381,Mafinga,-7.25,35.0667,84.43,53,98,2.91,TZ,1647000853
382,Merauke,-8.4667,140.3333,79.29,83,99,3.13,ID,1647000853
383,Hong Kong,22.2855,114.1577,73.38,77,18,5.99,HK,1647000520
384,Ballina,-28.8667,153.5667,66.02,99,100,7.02,AU,1647000683
385,Port-Gentil,-0.7193,8.7815,80.73,83,100,12.08,GA,1647000854
386,Grand Gaube,-20.0064,57.6608,86.38,73,11,8.99,MU,1647000854
387,Kruisfontein,-34.0033,24.7314,96.15,28,4,10.49,ZA,1647000854
388,Cabedelo,-6.9811,-34.8339,84.87,63,94,13.56,BR,1647000713
389,Neuquén,-38.9516,-68.0591,62.83,40,4,6.42,AR,1647000854
390,Mount Isa,-20.7333,139.5,87.57,25,40,5.75,AU,1647000855
391,Morondava,-20.2833,44.2833,85.23,74,100,12.08,MG,1647000855
392,Margate,51.3813,1.3862,55.87,69,72,7.0,GB,1647000855
393,Quatre Cocos,-20.2078,57.7625,86.09,76,29,13.04,MU,1647000855
394,Oranjemund,-28.55,16.4333,84.25,50,15,5.97,NA,1647000856
395,Lüderitz,-26.6481,15.1594,73.81,67,0,9.66,NA,1647000856
396,Rawson,-43.3002,-65.1023,58.96,56,23,4.45,AR,1647000856
397,Broome,42.2506,-75.833,31.05,85,0,1.01,US,1647000856
398,Sola,-13.8833,167.55,82.38,73,100,7.2,VU,1647000857
399,Waipawa,-41.4122,175.5153,56.3,78,0,7.11,NZ,1647000857
400,Bahía Blanca,-38.7196,-62.2724,59.4,62,1,9.04,AR,1647000857
401,Vrede,-27.4257,29.1659,78.98,36,15,10.31,ZA,1647000857
402,Voi,-3.3945,38.563,92.86,32,76,9.89,KE,1647000858
403,Soyo,-6.1349,12.3689,85.28,72,100,6.8,AO,1647000858
404,Pujilí,-0.95,-78.6833,45.48,86,80,1.97,EC,1647000858
405,Katete,-0.7818,29.7544,75.61,52,91,3.71,UG,1647000858
406,George,-33.963,22.4617,81.72,57,47,6.29,ZA,1647000859
407,Northam,51.0333,-4.2167,51.62,92,100,14.47,GB,1647000859
408,Ambulu,-8.345,113.6058,78.19,89,99,1.74,ID,1647000859
409,Namatanai,-3.6667,152.4333,80.22,82,100,7.23,PG,1647000859
410,Angoche,-16.2325,39.9086,78.69,91,100,30.49,MZ,1647000860
411,Ponérihouen,-21.0833,165.4,79.02,81,32,3.22,NC,1647000860
412,Boyolangu,-8.1181,111.8935,77.23,91,99,0.47,ID,1647000860
413,Lano,10.1725,11.4715,98.55,12,69,5.68,NG,1647000860
414,Luanda,-8.8368,13.2343,82.96,73,99,9.82,AO,1647000861
415,Karratha,-20.7377,116.8463,87.24,61,0,13.38,AU,1647000861
416,Waingapu,-9.6567,120.2641,81.05,83,98,3.6,ID,1647000861
417,Henties Bay,-22.116,14.2845,71.56,75,7,13.11,NA,1647000861
418,Sumbawanga,-7.9667,31.6167,71.31,74,99,3.11,TZ,1647000862
419,Isangel,-19.55,169.2667,79.3,82,19,3.09,VU,1647000862
420,Takoradze,4.8845,-1.7554,87.26,67,100,11.43,GH,1647000785
421,Borba,-4.3878,-59.5939,75.97,93,99,2.15,BR,1647000863
422,Asău,46.4333,26.4,25.72,60,71,14.97,RO,1647000863
423,Upington,-28.4478,21.2561,95.29,22,79,11.59,ZA,1647000863
424,Kapiri Mposhi,-13.9652,28.6809,76.5,63,43,5.39,ZM,1647000863
425,Autazes,-3.5797,-59.1306,74.57,93,99,1.72,BR,1647000784
426,San Cristobal,7.7669,-72.225,64.58,89,71,1.36,VE,1647000864
427,Vila Velha,-20.3297,-40.2925,84.15,77,40,10.36,BR,1647000864
428,Puerto Quijarro,-17.7833,-57.7667,79.56,78,65,2.53,BO,1647000864
429,Bowen,-20.0167,148.2333,81.72,78,71,14.74,AU,1647000864
430,Lata,40.1629,-8.3327,57.07,68,98,9.4,PT,1647000865
431,Colac,-38.3333,143.5833,53.83,85,94,3.96,AU,1647000865
432,Santa Fe,-31.6333,-60.7,67.98,71,1,4.0,AR,1647000865
433,Conceição do Araguaia,-8.2578,-49.2647,74.64,93,100,4.72,BR,1647000865
434,Balfour,-26.6633,28.5902,80.96,33,34,4.27,ZA,1647000866
435,Daru,-9.0763,143.2092,79.66,86,100,4.14,PG,1647000866
436,Mutoko,-17.397,32.2268,75.33,56,94,4.99,ZW,1647000866
437,Padang,-0.9492,100.3543,82.45,87,55,3.27,ID,1647000709
438,Geraldton,-28.7667,114.6,75.61,83,59,8.05,AU,1647000773
439,Vila,42.0304,-8.1588,45.48,93,85,12.3,PT,1647000867
440,La Rioja,-29.4111,-66.8507,68.41,70,2,2.48,AR,1647000867
441,Chicama,-7.8447,-79.1469,63.14,76,91,1.59,PE,1647000867
442,Hamilton,39.1834,-84.5333,36.99,87,0,3.44,US,1647000868
443,Alofi,-19.0595,-169.9187,80.96,79,99,11.63,NU,1647000868
444,Ambovombe,-25.1667,46.0833,82.36,71,18,20.6,MG,1647000868
445,Flinders,-34.5833,150.8552,68.38,82,58,5.01,AU,1647000869
446,Reconquista,-29.15,-59.65,69.03,88,90,11.25,AR,1647000869
447,General Roca,-39.0333,-67.5833,66.61,39,7,6.93,AR,1647000869
448,Mount Hagen,-5.8581,144.2274,61.05,99,100,2.04,PG,1647000869
449,Nabire,-3.3667,135.4833,77.45,88,100,2.42,ID,1647000870
450,Caucayá,-0.1934,-74.7819,73.11,93,89,1.1,CO,1647000870
451,Souillac,-20.5167,57.5167,81.21,78,35,11.97,MU,1647000870
452,Lorengau,-2.0226,147.2712,81.57,77,100,5.55,PG,1647000770
453,Kandrian,-6.2167,149.55,78.08,88,83,4.52,PG,1647000870
454,City of San Pedro,14.35,121.0167,83.35,76,95,9.37,PH,1647000692
455,Oriximiná,-1.7656,-55.8661,76.14,89,100,2.93,BR,1647000871
456,Dolores,-36.3132,-57.6792,60.67,67,25,11.45,AR,1647000871
457,Goya,-29.14,-59.2626,68.65,89,80,8.75,AR,1647000871
458,Kirakira,-10.4544,161.9205,78.26,83,100,1.61,SB,1647000872
459,Avera,33.194,-82.5271,51.39,84,100,6.82,US,1647000872
460,Lusambo,-4.9667,23.45,98.44,33,100,0.6,CD,1647000872
461,Urucará,-2.5364,-57.76,74.03,96,100,1.52,BR,1647000873
462,Atambua,-9.1061,124.8925,75.63,89,97,3.47,ID,1647000873
463,Beloha,-25.1667,45.05,88.29,52,5,18.23,MG,1647000873
464,Maragogi,-9.0122,-35.2225,83.46,64,35,8.95,BR,1647000873
465,Melo,-32.3667,-54.1833,64.24,57,22,11.16,UY,1647000873
466,Poum,-20.2333,164.0167,81.73,76,44,17.2,NC,1647000874
467,Liwale,-9.7667,37.9333,80.31,83,86,4.21,TZ,1647000874
468,Saint-Pierre,-21.3393,55.4781,85.68,73,4,21.85,RE,1647000778
469,Salto,-31.3833,-57.9667,60.87,88,19,8.99,UY,1647000874
470,Uchiza,-8.4592,-76.4633,70.61,98,100,0.72,PE,1647000875
471,Chopinzinho,-25.8558,-52.5233,67.69,95,100,1.57,BR,1647000875
472,Te Anau,-45.4167,167.7167,55.18,91,83,8.84,NZ,1647000631
473,Santa Rosa,14.3122,121.1114,84.11,75,96,9.01,PH,1647000697
474,Matucana,-11.85,-76.4,58.37,82,98,2.08,PE,1647000875
475,Garissa,-0.4536,39.6401,97.07,28,68,5.93,KE,1647000876
476,Kiama,-34.6833,150.8667,70.0,83,55,1.99,AU,1647000876
477,Talara,-4.5772,-81.2719,74.16,73,0,12.66,PE,1647000876
478,Lavumisa,-27.31,31.892,88.0,41,72,7.11,SZ,1647000876
479,Natal,-5.795,-35.2094,84.85,74,75,12.66,BR,1647000877
480,Camargo,27.6667,-105.1667,46.44,18,3,5.73,MX,1647000877
481,Kaoma,-14.7833,24.8,74.71,81,62,6.91,ZM,1647000877
482,Port Shepstone,-30.7414,30.455,79.93,74,2,12.95,ZA,1647000877
483,Meulaboh,4.1363,96.1285,80.13,80,58,2.86,ID,1647000878
484,Port Lincoln,-34.7333,135.8667,64.31,75,5,12.5,AU,1647000878
485,Ilave,-16.0833,-69.6667,46.56,77,100,2.04,PE,1647000879
486,General Pico,-35.6566,-63.7568,59.25,59,0,6.38,AR,1647000879
487,Quelimane,-17.8786,36.8883,83.91,72,100,12.59,MZ,1647000879
488,Gizo Government Station,-8.103,156.8419,82.99,73,55,6.51,SB,1647000879
489,Ascension,30.2169,-90.9001,61.0,93,100,3.44,US,1647000880
490,Óbidos,-1.9175,-55.5181,74.61,93,100,2.15,BR,1647000881
491,Richards Bay,-28.783,32.0377,83.39,57,12,9.78,ZA,1647000881
492,Labuhan,-6.8844,112.2051,81.14,82,89,8.12,ID,1647000881
493,Buala,-8.145,159.5921,79.68,83,100,4.59,SB,1647000881
494,São José da Coroa Grande,-8.8978,-35.1478,83.44,64,34,8.68,BR,1647000882
495,Srandakan,-7.9386,110.2506,79.83,85,70,4.47,ID,1647000811
496,Ampanihy,-24.7,44.75,94.89,36,4,18.23,MG,1647000882
497,Mocuba,-16.8392,36.9856,74.43,96,100,8.72,MZ,1647000882
498,Mareeba,-17.0,145.4333,77.72,94,92,3.6,AU,1647000883
499,Três Passos,-27.4556,-53.9319,68.05,99,100,1.59,BR,1647000883
500,Rafaela,-31.2503,-61.4867,66.97,65,0,1.01,AR,1647000883
501,Matara,5.9485,80.5353,82.53,73,64,6.8,LK,1647000603
502,Kasongo-Lunda,-6.4667,16.8167,89.42,48,100,2.55,CD,1647000883
503,Letlhakane,-21.4167,25.5833,88.21,24,49,16.28,BW,1647000884
504,Kiunga,-6.1219,141.2906,73.56,98,99,2.24,PG,1647000884
505,Karasburg,-28.0167,18.75,86.56,33,92,13.94,NA,1647000611
506,Mtwara,-10.2667,40.1833,82.6,80,100,11.56,TZ,1647000884
507,Kupang,-10.1667,123.5833,79.3,87,83,4.94,ID,1647000885
508,Harper,4.375,-7.7169,84.38,74,100,6.89,LR,1647000885
509,Planaltina,-15.4528,-47.6142,74.3,64,75,4.05,BR,1647000885
510,Russell,32.3502,-85.1999,60.08,89,100,3.44,US,1647000885
511,Paita,-5.0892,-81.1144,73.38,76,95,5.44,PE,1647000886
512,Yeppoon,-23.1333,150.7333,78.58,82,57,18.37,AU,1647000886
513,Maputo,-25.9653,32.5892,84.88,55,34,14.61,MZ,1647000887
514,Mmabatho,-25.85,25.6333,83.14,38,27,8.75,ZA,1647000887
515,Mbinga,-10.9333,35.0167,72.32,69,100,1.5,TZ,1647000887
516,Piaçabuçu,-10.4056,-36.4344,83.61,64,61,8.79,BR,1647000888
517,Chulucanas,-5.0925,-80.1625,75.43,70,87,0.54,PE,1647000888
518,Popondetta,-8.7537,148.2534,75.47,86,96,2.71,PG,1647000888
519,Kaeo,-35.1,173.7833,65.32,89,50,4.52,NZ,1647000658
520,Iaciara,-14.0958,-46.6317,78.08,67,48,1.86,BR,1647000888
521,Thinadhoo,0.5333,72.9333,83.41,65,1,5.23,MV,1647000778
522,Omboué,-1.5746,9.2618,80.1,80,100,4.72,GA,1647000889
523,Micheweni,-4.9667,39.8333,85.21,62,82,12.62,TZ,1647000889
524,Emerald,-23.5333,148.1667,78.35,71,39,20.07,AU,1647000780
525,San Joaquin,37.9333,-121.3011,46.33,50,0,3.44,US,1647000890
526,Japura,-0.3167,102.35,76.78,95,96,2.19,ID,1647000890
527,San Miguel de Tucumán,-26.8241,-65.2226,66.2,94,75,4.61,AR,1647000890
528,Barreiros,-8.8183,-35.1864,84.13,61,39,8.05,BR,1647000765
529,Bendigo,-36.7667,144.2833,58.86,43,68,8.01,AU,1647000682
530,Roebourne,-20.7833,117.1333,87.51,60,0,14.47,AU,1647000891
531,Pimentel,-6.8367,-79.9342,68.29,83,20,1.14,PE,1647000891
532,Luwingu,-10.2621,29.9271,76.12,68,91,1.41,ZM,1647000891
533,Dunedin,-45.8742,170.5036,63.9,62,91,8.37,NZ,1647000638
534,Biak,-0.9131,122.8766,79.56,83,82,3.98,ID,1647000892
535,Barra do Bugres,-15.0725,-57.1811,77.77,82,81,3.76,BR,1647000892
536,Broken Hill,-31.95,141.4333,69.06,26,56,11.27,AU,1647000892
537,Malacacheta,-17.8422,-42.0767,69.04,90,96,2.53,BR,1647000892
538,Southbridge,42.0751,-72.0334,33.22,96,11,1.99,US,1647000893
539,Kyabram,-36.3167,145.05,62.87,64,42,13.29,AU,1647000893
